[
  {
    "name": "四川省急救中心",
    "address": "四川省人民医院东3门南60米",
    "lng": 104.040325,
    "lat": 30.662236
  },
  {
    "name": "成都市第一人民医院南区急救中心",
    "address": "万象北路18号成都市中西医结合医院",
    "lng": 104.051208,
    "lat": 30.590505
  },
  {
    "name": "成都市急救指挥中心",
    "address": "洪安镇黄平中路2号",
    "lng": 104.272269,
    "lat": 30.654426
  },
  {
    "name": "四川省人民医院青羊院区急救中心",
    "address": "一环路西二段32号(青羊宫地铁站D口步行270米)",
    "lng": 104.040272,
    "lat": 30.662354
  },
  {
    "name": "四川省康复医院急救中心",
    "address": "永宁街道八一路81号成都国际医学城内",
    "lng": 103.898434,
    "lat": 30.717483
  },
  {
    "name": "应急救援装备",
    "address": "金府五金机电城43栋10号",
    "lng": 104.041875,
    "lat": 30.717725
  },
  {
    "name": "四川省第二中医医院急救中心",
    "address": "四川省第二中医医院",
    "lng": 104.054036,
    "lat": 30.671765
  },
  {
    "name": "成都市第六人民医院东虹院区急救",
    "address": "东虹路39号成都市第六人民医院东虹院区",
    "lng": 104.151315,
    "lat": 30.639812
  },
  {
    "name": "铂程非急救转运",
    "address": "中环路青羊大道段7号附27号",
    "lng": 104.007614,
    "lat": 30.65722
  },
  {
    "name": "成都市妇女儿童中心医院中心院区急救",
    "address": "日月大道一段1617号成都市妇女儿童中心医院中心院区",
    "lng": 103.960813,
    "lat": 30.676286
  },
  {
    "name": "彭州市急救中心(金彭西路)",
    "address": "天彭街道金彭西路178号彭州市人民医院",
    "lng": 103.937612,
    "lat": 30.988488
  },
  {
    "name": "简阳市急救指挥分中心",
    "address": "简城镇医院路",
    "lng": 104.547249,
    "lat": 30.388299
  },
  {
    "name": "成都天府国际机场急救中心",
    "address": "骏业大道成都天府国际机场",
    "lng": 104.450249,
    "lat": 30.327379
  },
  {
    "name": "金堂县急救指挥中心",
    "address": "万方街与万吉巷交叉口南40米",
    "lng": 104.422307,
    "lat": 30.855069
  },
  {
    "name": "蜀都客车急救中心",
    "address": "运力大道与金韵路交叉口东南40米",
    "lng": 104.150519,
    "lat": 30.832281
  },
  {
    "name": "四川省红十字会",
    "address": "玉双路3号8栋(玉双路地铁站E1口步行350米)",
    "lng": 104.09652,
    "lat": 30.655416
  },
  {
    "name": "成都市双流区红十字会",
    "address": "花月东街62号",
    "lng": 103.919348,
    "lat": 30.577658
  },
  {
    "name": "崇州市红十字会",
    "address": "蜀州南路1号",
    "lng": 103.669601,
    "lat": 30.621064
  },
  {
    "name": "郫都区红十字会",
    "address": "郫筒镇望丛中路998号",
    "lng": 103.902348,
    "lat": 30.795868
  },
  {
    "name": "四川红十字应急救援救护中心",
    "address": "沙河街道川师成教院菱窠路90号教学楼4楼",
    "lng": 104.119711,
    "lat": 30.617729
  },
  {
    "name": "成华区红十字会",
    "address": "东秀一路151号(杉板桥地铁站C口步行440米)",
    "lng": 104.117089,
    "lat": 30.66127
  },
  {
    "name": "成都市红十字会",
    "address": "天府大道1480号拉·德方斯西楼F5层",
    "lng": 104.064573,
    "lat": 30.574802
  },
  {
    "name": "彭州市红十字会",
    "address": "回龙东路120号",
    "lng": 103.96715,
    "lat": 30.995855
  },
  {
    "name": "都江堰市红十字会",
    "address": "联盟南路22号",
    "lng": 103.651846,
    "lat": 30.985649
  },
  {
    "name": "都江堰市红十字蓝天救援队",
    "address": "大林村3组公交站",
    "lng": 103.682082,
    "lat": 30.978289
  },
  {
    "name": "成都市新津区红十字会",
    "address": "惠丰路34号",
    "lng": 103.807511,
    "lat": 30.413502
  },
  {
    "name": "彭州市军乐镇红十字会",
    "address": "乐兴西街与军乐路交叉口西80米",
    "lng": 103.974228,
    "lat": 31.044204
  },
  {
    "name": "成都市新都区红十字会",
    "address": "香城南路60新都区文广中心10层",
    "lng": 104.17999,
    "lat": 30.807739
  },
  {
    "name": "成都市龙泉驿区红十字会",
    "address": "双龙路492号附7号",
    "lng": 104.258337,
    "lat": 30.575465
  },
  {
    "name": "成都市温江区红十字会",
    "address": "城武街与隆正街交叉口东北20米",
    "lng": 103.905719,
    "lat": 30.728225
  },
  {
    "name": "成都市温江区红十字会",
    "address": "温泉大道二段与浩旺路交叉口东100米",
    "lng": 103.849493,
    "lat": 30.667983
  },
  {
    "name": "大邑县红十字会",
    "address": "晋原镇桃源大道66号",
    "lng": 103.512243,
    "lat": 30.573209
  },
  {
    "name": "邛崃市太和乡卫生院红十字会",
    "address": "太和街与173县道交叉口东南100米",
    "lng": 103.147228,
    "lat": 30.233725
  },
  {
    "name": "邛崃市红十字会",
    "address": "南江路6号商务楼B幢11层",
    "lng": 103.496565,
    "lat": 30.396421
  },
  {
    "name": "简阳市红十字会会员单位",
    "address": "广场路与九义巷交叉口北60米",
    "lng": 104.542693,
    "lat": 30.388511
  },
  {
    "name": "成都市锦江区红十字会",
    "address": "天府宝座B座",
    "lng": 104.089206,
    "lat": 30.588896
  },
  {
    "name": "金堂县栖贤乡红十字会",
    "address": "长板桥街268号",
    "lng": 104.466755,
    "lat": 30.864871
  },
  {
    "name": "红十字人道服务工作站",
    "address": "石人正街与石人南街交叉口北60米",
    "lng": 104.026169,
    "lat": 30.674717
  },
  {
    "name": "成都市金牛区九里堤街道九里堤北路社区居民委员会-红十字会",
    "address": "星月西街8号",
    "lng": 104.049816,
    "lat": 30.708191
  },
  {
    "name": "四川省红十字基金会先锋扶贫基金",
    "address": "玉双路(玉双路地铁站E1口步行330米)",
    "lng": 104.096537,
    "lat": 30.65554
  },
  {
    "name": "大塘学校红十字会",
    "address": "新街22号",
    "lng": 103.382268,
    "lat": 30.294588
  },
  {
    "name": "武侯区黉门街社区红十字会",
    "address": "电信南街1号",
    "lng": 104.058681,
    "lat": 30.637883
  },
  {
    "name": "新都区龙桥镇瑞云社区红十字会博爱家园",
    "address": "阳光林森路164号附近",
    "lng": 104.019982,
    "lat": 30.841281
  },
  {
    "name": "红十字博爱家园",
    "address": "九里堤北路13号",
    "lng": 104.049909,
    "lat": 30.708337
  },
  {
    "name": "金琴南路社区红十字服务站",
    "address": "抚琴西路南一巷1号(抚琴地铁站B1口步行480米)",
    "lng": 104.037591,
    "lat": 30.675457
  },
  {
    "name": "三界镇罗家场社区红十字服务站",
    "address": "什彭路与灵泉路交叉口东南20米",
    "lng": 104.0626,
    "lat": 31.056108
  },
  {
    "name": "新津县永商镇红十字会",
    "address": "新蒲路与和平上街交叉口东北140米",
    "lng": 103.744947,
    "lat": 30.341851
  },
  {
    "name": "龙泉驿区龙泉街道利民社区红十字会",
    "address": "怡安路226号(龙平路地铁站B口步行210米)",
    "lng": 104.257405,
    "lat": 30.57194
  },
  {
    "name": "长伍村红十字会",
    "address": "长伍路与016乡道交叉口南180米",
    "lng": 104.271899,
    "lat": 30.659236
  },
  {
    "name": "花桥街道红十字会",
    "address": "白鹤东路1号",
    "lng": 103.850435,
    "lat": 30.437833
  },
  {
    "name": "双流区彭镇红十字会",
    "address": "罗汉路399号",
    "lng": 103.877107,
    "lat": 30.586422
  },
  {
    "name": "花园社区红十字会志愿者工作站",
    "address": "绕城大道南二段与宝光大道南段交叉口东南40米",
    "lng": 104.133909,
    "lat": 30.786029
  },
  {
    "name": "都江堰市红十字岷江应急救援队",
    "address": "高桥B3-南区西门南80米",
    "lng": 103.660398,
    "lat": 31.001666
  },
  {
    "name": "五块石社区红十字服务站",
    "address": "赛云台东一路16号",
    "lng": 104.071313,
    "lat": 30.702559
  },
  {
    "name": "宝光寺红十字会",
    "address": "宝光街81号宝光寺内",
    "lng": 104.16109,
    "lat": 30.830855
  },
  {
    "name": "成都东部新区第二人民医院红十字会",
    "address": "健康路与102乡道交叉口西60米",
    "lng": 104.356463,
    "lat": 30.435718
  },
  {
    "name": "都江堰市红十字会岷江救援队",
    "address": "兴堰路与永安大道北二段辅路交叉口西140米",
    "lng": 103.659259,
    "lat": 31.00891
  },
  {
    "name": "小关庙社区红十字服务站",
    "address": "小关庙后街12号",
    "lng": 104.085252,
    "lat": 30.669768
  },
  {
    "name": "肖家河正街社区红十字服务站",
    "address": "肖家河环四巷26号(科园地铁站A3口步行380米)",
    "lng": 104.040971,
    "lat": 30.631472
  },
  {
    "name": "晋阳社区红十字慈善爱心超市",
    "address": "晋平街晋阳社区",
    "lng": 104.005368,
    "lat": 30.647571
  },
  {
    "name": "四川省红十字基金会金兰会创业专项基金",
    "address": "玉双路1号玉双大厦(玉双路地铁站E1口步行170米)",
    "lng": 104.097136,
    "lat": 30.654657
  },
  {
    "name": "青年路社区红十字服务站",
    "address": "东华门街27(天府广场地铁站东1北口步行400米)",
    "lng": 104.069133,
    "lat": 30.660475
  },
  {
    "name": "都江堰市龙池镇红十字会",
    "address": "滨河路与龙池旅游路交叉口西南440米",
    "lng": 103.585208,
    "lat": 31.020973
  },
  {
    "name": "九江初级中学红十字会",
    "address": "沿河路九江中学",
    "lng": 103.916256,
    "lat": 30.620359
  },
  {
    "name": "东南社区红十字会",
    "address": "安居路与五通庙街交叉口西北40米",
    "lng": 103.466152,
    "lat": 30.392808
  },
  {
    "name": "彭州市龙门山镇红十字会",
    "address": "彭白路与国税路交叉口东北360米",
    "lng": 103.778217,
    "lat": 31.228503
  },
  {
    "name": "新津县兴义镇红十字会(新津县规划局兴义规划管理所)",
    "address": "万兴路与兴盛南街交叉口东120米",
    "lng": 103.815583,
    "lat": 30.486187
  },
  {
    "name": "紫东社区红十字服务站",
    "address": "双迎街与五福街交叉口西南60米",
    "lng": 104.103076,
    "lat": 30.635546
  },
  {
    "name": "五福桥社区红十字工作站",
    "address": "汇泉南路135-137",
    "lng": 104.104691,
    "lat": 30.62756
  },
  {
    "name": "成都锦欣沙河堡医院24小时体外碎石中心",
    "address": "佳宏路29号(狮子山地铁站D口步行240米)",
    "lng": 104.126393,
    "lat": 30.617707
  },
  {
    "name": "机场医救中心",
    "address": "成都市双流区",
    "lng": 103.960983,
    "lat": 30.570546
  },
  {
    "name": "安运医疗救援",
    "address": "邓小平广场12号(簇桥地铁站E口步行260米)",
    "lng": 103.98995,
    "lat": 30.606099
  },
  {
    "name": "郫都区中西医结合医院急诊",
    "address": "浦兴街与上街交叉口西南140米",
    "lng": 103.96741,
    "lat": 30.75544
  },
  {
    "name": "大邑县第二人民医院-急诊",
    "address": "安仁镇千禧街",
    "lng": 103.616388,
    "lat": 30.51496
  },
  {
    "name": "成都120",
    "address": "龙井中街与龙井南街交叉口西南60米",
    "lng": 103.994747,
    "lat": 30.60448
  },
  {
    "name": "崇州蓝天救援服务中心",
    "address": "力兴之家D区同心路2号附48号",
    "lng": 103.685855,
    "lat": 30.598979
  },
  {
    "name": "大邑德全骨伤科医院工会委员会",
    "address": "甲子东道167号",
    "lng": 103.541123,
    "lat": 30.579382
  },
  {
    "name": "大面街道玉石社区人民调解委员会",
    "address": "白鹤小区1期南门旁",
    "lng": 104.170725,
    "lat": 30.613548
  },
  {
    "name": "葛仙山镇永乐村村民委员会",
    "address": "永乐村红十字博爱卫生站西南侧",
    "lng": 103.945225,
    "lat": 31.085561
  },
  {
    "name": "四川现代医院武侯院区120急诊",
    "address": "武兴一路118号四川现代医院武侯院区",
    "lng": 103.994137,
    "lat": 30.631222
  },
  {
    "name": "金花医院120急诊",
    "address": "双凤三路与金花桥路交叉口东80米",
    "lng": 103.968546,
    "lat": 30.608751
  },
  {
    "name": "金泉社区卫生服务中心",
    "address": "信息西路120号(金科北路地铁站A口步行100米)",
    "lng": 104.005714,
    "lat": 30.721844
  },
  {
    "name": "爱脊柱颈肩腰腿痛精准调理中心",
    "address": "剑南大道中段辅路与盛源街交叉口东北120米",
    "lng": 104.047375,
    "lat": 30.545475
  }
]